City_ID,City,Country,Lat,Lng,Max Temp,Humidity,Cloudiness,Wind Speed,Current Description,Date
0,Hithadhoo,MV,-0.6,73.0833,82.38,73,100,10.38,overcast clouds,2021-08-07 20:18:24
1,Nishihara,JP,26.1842,127.7558,78.85,97,90,19.57,light intensity shower rain,2021-08-07 20:18:24
2,Hobart,AU,-42.8794,147.3294,35.26,89,75,3.0,broken clouds,2021-08-07 20:18:24
3,Khatanga,RU,71.9667,102.5,50.22,68,73,8.37,broken clouds,2021-08-07 20:18:24
4,Monki,PL,53.405,22.7979,59.7,88,33,6.44,scattered clouds,2021-08-07 20:18:25
5,Hasaki,JP,35.7333,140.8333,79.2,88,100,14.63,heavy intensity rain,2021-08-07 20:13:40
6,Whitehorse,CA,60.7161,-135.0538,63.1,82,75,4.61,broken clouds,2021-08-07 20:17:11
7,Albany,US,42.6001,-73.9662,87.15,67,99,1.99,overcast clouds,2021-08-07 20:15:43
8,Guadix,ES,37.2993,-3.1392,78.46,26,0,4.59,clear sky,2021-08-07 20:18:25
9,Komsomolskiy,UZ,40.4272,71.7189,79.52,36,65,11.5,broken clouds,2021-08-07 20:18:26
10,Sao Filipe,CV,14.8961,-24.4956,79.2,80,47,5.97,scattered clouds,2021-08-07 20:18:26
11,Pemberton,CA,50.3164,-122.8027,65.89,92,100,4.25,overcast clouds,2021-08-07 20:18:26
12,Sapouy,BF,11.5544,-1.7736,79.21,72,96,9.15,overcast clouds,2021-08-07 20:18:26
13,Rikitea,PF,-23.1203,-134.9692,74.01,80,11,12.33,few clouds,2021-08-07 20:18:27
14,Arequipa,PE,-16.3989,-71.535,68.07,19,0,11.5,clear sky,2021-08-07 20:18:27
15,Yanam,IN,16.7333,82.2167,82.38,78,100,5.23,overcast clouds,2021-08-07 20:18:27
16,Abu Dhabi,AE,24.4667,54.3667,95.11,63,0,4.61,clear sky,2021-08-07 20:18:02
17,Sao Jose Da Coroa Grande,BR,-8.8978,-35.1478,75.02,73,54,16.11,broken clouds,2021-08-07 20:18:28
18,Brae,GB,60.3964,-1.353,58.91,91,100,17.81,overcast clouds,2021-08-07 20:18:28
19,Hinche,HT,19.15,-72.0167,89.02,46,19,8.28,few clouds,2021-08-07 20:18:28
20,Champerico,GT,14.3,-91.9167,88.93,67,99,5.32,overcast clouds,2021-08-07 20:18:29
21,Punta Arenas,CL,-53.15,-70.9167,35.71,80,0,23.02,clear sky,2021-08-07 20:18:29
22,Mount Gambier,AU,-37.8333,140.7667,35.51,100,90,8.05,overcast clouds,2021-08-07 20:18:29
23,Busselton,AU,-33.65,115.3333,57.04,93,98,6.53,light rain,2021-08-07 20:18:29
24,Vaini,TO,-21.2,-175.2,68.16,77,40,5.75,scattered clouds,2021-08-07 20:18:30
25,Jamestown,US,42.097,-79.2353,81.3,75,75,1.99,broken clouds,2021-08-07 20:15:19
26,Weligama,LK,5.9667,80.4167,77.83,87,100,13.56,overcast clouds,2021-08-07 20:18:30
27,Engel-Yurt,RU,43.3289,46.3603,80.11,41,86,4.81,overcast clouds,2021-08-07 20:18:31
28,Saskylakh,RU,71.9167,114.0833,49.14,77,100,7.72,overcast clouds,2021-08-07 20:18:31
29,Bethel,US,41.3712,-73.414,86.36,62,1,9.22,clear sky,2021-08-07 20:18:31
30,Srednekolymsk,RU,67.45,153.6833,47.88,66,4,4.03,clear sky,2021-08-07 20:18:31
31,Ushuaia,AR,-54.8,-68.3,29.86,93,90,33.38,heavy snow,2021-08-07 20:18:32
32,Yatou,CN,37.15,122.3833,71.35,88,32,5.68,scattered clouds,2021-08-07 20:18:32
33,Alexandria,EG,31.2156,29.9553,82.58,71,0,13.85,clear sky,2021-08-07 20:18:32
34,Gao,ML,16.6362,1.637,90.64,39,66,18.99,broken clouds,2021-08-07 20:18:33
35,Sai Buri,TH,6.7013,101.6168,77.76,83,29,3.85,scattered clouds,2021-08-07 20:18:33
36,Kapaa,US,22.0752,-159.319,84.52,66,20,3.0,few clouds,2021-08-07 20:18:33
37,Cape Town,ZA,-33.9258,18.4232,52.21,93,90,5.75,fog,2021-08-07 20:13:46
38,Itarema,BR,-2.9248,-39.9167,81.37,68,93,18.37,overcast clouds,2021-08-07 20:14:20
39,Oranjestad,AW,12.524,-70.027,89.55,58,20,19.57,few clouds,2021-08-07 20:18:34
40,Limoeiro Do Norte,BR,-5.1456,-38.0981,89.91,34,51,12.86,broken clouds,2021-08-07 20:18:34
41,Puerto Ayora,EC,-0.7393,-90.3518,80.56,83,85,8.99,overcast clouds,2021-08-07 20:18:34
42,Mahon,ES,39.8885,4.2658,79.36,83,40,13.8,scattered clouds,2021-08-07 20:18:34
43,Longyearbyen,SJ,78.2186,15.6401,46.24,76,75,11.5,broken clouds,2021-08-07 20:18:35
44,Salina,US,38.8403,-97.6114,98.73,41,1,10.0,clear sky,2021-08-07 20:18:35
45,Butaritari,KI,3.0707,172.7902,82.22,69,15,14.38,few clouds,2021-08-07 20:18:35
46,Arraial Do Cabo,BR,-22.9661,-42.0278,71.56,68,40,17.27,scattered clouds,2021-08-07 20:18:36
47,Blackwater,AU,-23.5833,148.8833,48.33,56,0,6.67,clear sky,2021-08-07 20:18:36
48,Samarai,PG,-10.6167,150.6667,77.38,86,91,15.48,overcast clouds,2021-08-07 20:18:36
49,Senanga,ZM,-16.1167,23.2667,62.29,20,0,6.46,clear sky,2021-08-07 20:18:36
50,Cookeville,US,36.1628,-85.5016,84.92,74,1,1.01,clear sky,2021-08-07 20:18:37
51,Kahului,US,20.8947,-156.47,84.22,66,20,21.85,few clouds,2021-08-07 20:18:37
52,Hilo,US,19.7297,-155.09,82.26,73,75,10.36,broken clouds,2021-08-07 20:18:37
53,Yellowknife,CA,62.456,-114.3525,62.37,73,100,12.75,light rain,2021-08-07 20:13:52
54,Morros,BR,-9.4467,-46.3003,88.84,25,11,9.8,few clouds,2021-08-07 20:18:38
55,Pangnirtung,CA,66.1451,-65.7125,42.67,81,100,3.76,overcast clouds,2021-08-07 20:18:38
56,Havre-Saint-Pierre,CA,50.2334,-63.5986,66.56,77,40,13.8,scattered clouds,2021-08-07 20:18:38
57,Shache,CN,38.4167,77.2406,78.91,34,100,13.49,light rain,2021-08-07 20:18:39
58,Bluff,NZ,-46.6,168.3333,35.8,76,100,2.51,light rain,2021-08-07 20:18:39
59,Asau,RO,46.4333,26.4,63.52,88,1,0.98,clear sky,2021-08-07 20:18:39
60,Appingedam,NL,53.3217,6.8583,64.99,70,100,6.15,overcast clouds,2021-08-07 20:18:40
61,Avarua,CK,-21.2078,-159.775,78.85,69,20,4.61,few clouds,2021-08-07 20:18:40
62,Barrow,US,71.2906,-156.7887,37.42,77,75,6.91,broken clouds,2021-08-07 20:18:15
63,Araguari,BR,-18.6472,-48.1872,73.69,34,14,11.54,few clouds,2021-08-07 20:18:40
64,Atuona,PF,-9.8,-139.0333,76.87,83,88,16.15,light rain,2021-08-07 20:18:41
65,Vyazemskiy,RU,47.5378,134.7525,57.49,99,100,9.73,overcast clouds,2021-08-07 20:18:41
66,Joacaba,BR,-27.1781,-51.5047,70.23,57,98,4.0,overcast clouds,2021-08-07 20:18:41
67,Port Alfred,ZA,-33.5906,26.891,59.45,85,67,14.34,broken clouds,2021-08-07 20:18:42
68,Mar Del Plata,AR,-38.0023,-57.5575,60.82,55,20,8.05,few clouds,2021-08-07 20:15:00
69,Angoche,MZ,-16.2325,39.9086,72.86,76,0,8.12,clear sky,2021-08-07 20:14:22
70,Mataura,NZ,-46.1927,168.8643,35.47,99,100,0.94,overcast clouds,2021-08-07 20:18:42
71,Praya,CV,14.9215,-23.5087,79.34,89,75,8.05,broken clouds,2021-08-07 20:18:06
72,Vostok,RU,46.4856,135.8833,57.85,99,100,4.61,overcast clouds,2021-08-07 20:18:43
73,Kindu,CD,-2.95,25.95,75.27,73,85,0.74,overcast clouds,2021-08-07 20:18:43
74,Meulaboh,ID,4.1363,96.1285,76.96,88,99,5.53,overcast clouds,2021-08-07 20:18:43
75,Clyde River,CA,70.4692,-68.5914,39.43,100,90,11.5,light intensity drizzle,2021-08-07 20:18:43
76,Talaya,RU,61.3833,152.75,48.06,92,100,3.8,overcast clouds,2021-08-07 20:18:44
77,Awjilah,LY,29.1081,21.2869,90.36,31,0,14.12,clear sky,2021-08-07 20:18:44
78,Victoria,HK,22.2855,114.1577,84.16,88,100,1.01,overcast clouds,2021-08-07 20:17:06
79,Celestun,MX,20.8667,-90.4,86.63,68,32,15.93,scattered clouds,2021-08-07 20:18:45
80,Vestmannaeyjar,IS,63.4427,-20.2734,55.4,89,100,11.92,overcast clouds,2021-08-07 20:18:45
81,Kavieng,PG,-2.5744,150.7967,81.27,78,99,13.87,moderate rain,2021-08-07 20:18:45
82,Port Elizabeth,ZA,-33.918,25.5701,59.29,94,40,6.91,scattered clouds,2021-08-07 20:18:45
83,Key West,US,24.5557,-81.7826,93.2,57,20,10.36,few clouds,2021-08-07 20:18:46
84,Birin,NP,26.8865,88.0718,65.12,95,100,2.44,moderate rain,2021-08-07 20:18:46
85,Santa Catarina De Tepehuanes,MX,25.35,-105.7333,75.45,59,95,7.36,overcast clouds,2021-08-07 20:18:46
86,Puteyets,RU,65.1716,57.091,49.77,96,100,10.29,overcast clouds,2021-08-07 20:18:47
87,Kangaatsiaq,GL,68.3065,-53.4641,41.4,91,100,9.26,overcast clouds,2021-08-07 20:18:47
88,Vanavara,RU,60.34,102.2797,51.3,66,25,1.3,scattered clouds,2021-08-07 20:18:47
89,Airai,TL,-8.9266,125.4092,52.88,66,23,2.73,few clouds,2021-08-07 20:18:48
90,Enid,US,36.3956,-97.8784,101.01,44,40,8.01,scattered clouds,2021-08-07 20:18:01
91,Bathsheba,BB,13.2167,-59.5167,86.61,66,20,11.5,few clouds,2021-08-07 20:18:48
92,College,US,64.8569,-147.8028,58.59,91,75,0.0,light rain,2021-08-07 20:18:48
93,Carnarvon,AU,-24.8667,113.6333,66.27,90,40,8.05,scattered clouds,2021-08-07 20:18:49
94,Yerbogachen,RU,61.2767,108.0108,49.8,71,99,2.75,overcast clouds,2021-08-07 20:17:26
95,Avera,US,33.194,-82.5271,89.91,56,93,1.3,overcast clouds,2021-08-07 20:18:49
96,Presidencia Roque Saenz Pena,AR,-26.7852,-60.4388,92.53,17,0,11.9,clear sky,2021-08-07 20:18:49
97,Agadez,NE,19.75,10.25,96.91,9,10,6.87,clear sky,2021-08-07 20:18:50
98,Pitsunda,GE,43.1592,40.3378,71.78,77,100,13.49,moderate rain,2021-08-07 20:18:50
99,Ponta Do Sol,PT,32.6667,-17.1,75.7,82,75,6.29,broken clouds,2021-08-07 20:18:50
100,Nikolskoye,RU,59.7035,30.7861,64.29,99,100,5.82,light rain,2021-08-07 20:18:50
101,San Jose,US,37.3394,-121.895,92.01,57,90,6.91,smoke,2021-08-07 20:16:36
102,Qaanaaq,GL,77.484,-69.3632,41.61,75,98,1.66,overcast clouds,2021-08-07 20:18:51
103,Sorong,ID,-0.8833,131.25,77.76,88,100,7.0,moderate rain,2021-08-07 20:18:52
104,Saint George,US,37.1041,-113.5841,98.64,11,1,1.01,haze,2021-08-07 20:18:52
105,Svetlaya,RU,46.5389,138.3297,60.67,95,100,19.84,overcast clouds,2021-08-07 20:18:52
106,Kodiak,US,57.79,-152.4072,56.71,72,90,9.22,light rain,2021-08-07 20:18:53
107,Yunyang,CN,33.4474,112.7142,74.05,78,20,3.47,few clouds,2021-08-07 20:18:53
108,La Tuque,CA,47.4334,-72.7824,62.89,89,86,4.47,overcast clouds,2021-08-07 20:14:06
109,Chokurdakh,RU,70.6333,147.9167,52.63,59,45,5.53,scattered clouds,2021-08-07 20:18:53
110,Kenai,US,60.5544,-151.2583,69.03,68,1,11.5,clear sky,2021-08-07 20:18:54
111,Beira,MZ,-19.8436,34.8389,66.29,94,0,6.91,clear sky,2021-08-07 20:18:54
112,Victor Harbor,AU,-35.5667,138.6167,50.9,83,0,6.55,clear sky,2021-08-07 20:18:53
113,Port Hardy,CA,50.6996,-127.4199,66.38,72,75,12.66,light rain,2021-08-07 20:18:54
114,Madang,PG,-5.2246,145.7966,74.7,91,100,4.41,overcast clouds,2021-08-07 20:18:55
115,Xifeng,CN,42.7372,124.7222,65.41,87,85,2.59,overcast clouds,2021-08-07 20:18:55
116,Cidreira,BR,-30.1811,-50.2056,63.59,84,4,10.98,clear sky,2021-08-07 20:18:55
117,Vila Franca Do Campo,PT,37.7167,-25.4333,70.21,68,14,8.14,few clouds,2021-08-07 20:18:56
118,Aden,YE,12.7794,45.0367,84.34,76,3,6.04,clear sky,2021-08-07 20:15:06
119,Hermanus,ZA,-34.4187,19.2345,51.91,74,92,1.12,overcast clouds,2021-08-07 20:18:56
120,Lebu,CL,-37.6167,-73.65,50.56,70,6,22.01,clear sky,2021-08-07 20:18:56
121,Gizo,SB,-8.103,156.8419,81.32,76,72,11.88,broken clouds,2021-08-07 20:18:15
122,Geraldton,AU,-28.7667,114.6,61.21,94,40,9.22,scattered clouds,2021-08-07 20:18:57
123,Lomas De Sargentillo,EC,-1.8833,-80.0833,84.58,47,95,5.77,overcast clouds,2021-08-07 20:18:57
124,Ribeira Grande,PT,38.5167,-28.7,72.0,60,40,8.05,scattered clouds,2021-08-07 20:18:57
125,Swan River,CA,52.1058,-101.2676,85.89,37,75,13.8,broken clouds,2021-08-07 20:18:58
126,Bredasdorp,ZA,-34.5322,20.0403,51.28,93,100,2.3,overcast clouds,2021-08-07 20:18:58
127,Sioux Lookout,CA,50.1001,-91.917,71.98,53,75,10.36,smoke,2021-08-07 20:18:58
128,Berlevag,NO,70.8578,29.0864,60.19,67,39,11.39,scattered clouds,2021-08-07 20:18:59
129,Asfi,MA,32.2994,-9.2372,71.1,77,83,17.05,broken clouds,2021-08-07 20:18:59
130,Ornskoldsvik,SE,63.2909,18.7153,67.82,55,90,8.05,overcast clouds,2021-08-07 20:18:59
131,Katsuura,JP,35.1333,140.3,78.91,95,100,21.83,heavy intensity rain,2021-08-07 20:18:59
132,Abalak,RU,58.1286,68.5944,55.99,99,100,4.56,overcast clouds,2021-08-07 20:19:00
133,Lompoc,US,34.6391,-120.4579,83.21,65,1,14.97,clear sky,2021-08-07 20:18:46
134,Beringovskiy,RU,63.05,179.3167,43.75,87,100,25.7,light rain,2021-08-07 20:19:00
135,Vytegra,RU,61.0064,36.4481,61.32,94,100,14.34,overcast clouds,2021-08-07 20:19:00
136,Orbetello,IT,42.4408,11.2196,78.8,100,0,9.22,clear sky,2021-08-07 20:19:01
137,Esperance,AU,-33.8667,121.9,60.64,74,100,4.61,overcast clouds,2021-08-07 20:19:01
138,Khorixas,NA,-20.3667,14.9667,72.7,18,0,8.3,clear sky,2021-08-07 20:19:01
139,New Norfolk,AU,-42.7826,147.0587,34.92,85,99,2.68,overcast clouds,2021-08-07 20:19:02
140,Sao Joao Da Barra,BR,-21.6403,-41.0511,71.69,70,100,13.24,overcast clouds,2021-08-07 20:19:02
141,East London,ZA,-33.0153,27.9116,59.99,82,29,11.88,scattered clouds,2021-08-07 20:19:02
142,Sur,OM,22.5667,59.5289,90.48,54,90,11.32,overcast clouds,2021-08-07 20:14:38
143,Abha,SA,18.2164,42.5053,64.22,72,0,0.0,clear sky,2021-08-07 20:19:03
144,Balabac,PH,7.9868,117.0645,81.88,76,100,2.8,overcast clouds,2021-08-07 20:19:03
145,Nanortalik,GL,60.1432,-45.2371,47.17,92,100,21.47,moderate rain,2021-08-07 20:19:03
146,Stavrovo,RU,56.1331,40.013,65.21,75,94,7.85,moderate rain,2021-08-07 20:19:04
147,Kaitangata,NZ,-46.2817,169.8464,36.84,85,100,1.99,overcast clouds,2021-08-07 20:19:04
148,Port Lincoln,AU,-34.7333,135.8667,51.3,78,0,10.49,clear sky,2021-08-07 20:19:05
149,Beisfjord,NO,68.3751,17.5988,69.04,55,99,6.31,overcast clouds,2021-08-07 20:19:05
150,Cayenne,GF,4.9333,-52.3333,85.08,76,0,4.0,clear sky,2021-08-07 20:19:05
151,Sitka,US,57.0531,-135.33,62.49,82,75,8.05,broken clouds,2021-08-07 20:19:05
152,Souillac,MU,-20.5167,57.5167,70.36,78,40,8.05,scattered clouds,2021-08-07 20:19:06
153,Leningradskiy,RU,69.3833,178.4167,37.17,79,98,12.33,overcast clouds,2021-08-07 20:19:06
154,Campechuela,CU,20.2342,-77.2789,88.48,60,95,8.99,overcast clouds,2021-08-07 20:19:06
155,Iqaluit,CA,63.7506,-68.5145,51.53,58,75,18.41,broken clouds,2021-08-07 20:18:27
156,Mount Isa,AU,-20.7333,139.5,42.57,52,0,1.14,clear sky,2021-08-07 20:19:07
157,Castro,BR,-24.7911,-50.0119,63.61,69,71,5.03,broken clouds,2021-08-07 20:19:07
158,Zarubino,RU,42.63,131.0922,68.81,90,1,4.92,clear sky,2021-08-07 20:19:07
159,Chumikan,RU,54.7183,135.315,50.77,89,93,14.97,overcast clouds,2021-08-07 20:19:08
160,Isangel,VU,-19.55,169.2667,69.91,73,40,4.61,haze,2021-08-07 20:19:08
161,Swan Hill,AU,-35.3378,143.5544,50.99,70,100,2.75,overcast clouds,2021-08-07 20:19:08
162,Tuktoyaktuk,CA,69.4541,-133.0374,44.6,81,90,13.8,overcast clouds,2021-08-07 20:19:09
163,Tasiilaq,GL,65.6145,-37.6368,46.56,95,100,7.02,light rain,2021-08-07 20:19:09
164,Faanui,PF,-16.4833,-151.75,78.06,71,25,8.01,scattered clouds,2021-08-07 20:16:20
165,Chuy,UY,-33.6971,-53.4616,67.73,75,9,5.41,clear sky,2021-08-07 20:19:09
166,Raudeberg,NO,61.9875,5.1352,65.19,69,100,6.8,overcast clouds,2021-08-07 20:19:10
167,Pevek,RU,69.7008,170.3133,41.58,76,24,4.74,few clouds,2021-08-07 20:19:10
168,Cam Ranh,VN,11.9214,109.1591,84.16,79,20,2.3,few clouds,2021-08-07 20:19:10
169,Kanker,IN,20.2719,81.4931,75.49,84,100,4.0,overcast clouds,2021-08-07 20:18:02
170,Hamilton,US,39.1834,-84.5333,89.74,53,40,3.0,scattered clouds,2021-08-07 20:19:11
171,Tsabong,BW,-26.0217,22.401,60.33,13,0,5.57,clear sky,2021-08-07 20:19:11
172,Zabol,AF,32.25,67.25,74.55,15,0,7.47,clear sky,2021-08-07 20:19:11
173,Carutapera,BR,-1.195,-46.02,79.11,85,83,6.89,broken clouds,2021-08-07 20:19:11
174,Saint-Philippe,RE,-21.3585,55.7679,71.15,77,37,12.06,scattered clouds,2021-08-07 20:19:12
175,General Roca,AR,-39.0333,-67.5833,57.6,19,98,13.96,overcast clouds,2021-08-07 20:19:12
176,Klaksvik,FO,62.2266,-6.589,61.72,91,91,16.8,overcast clouds,2021-08-07 20:19:12
177,Lavrentiya,RU,65.5833,-171.0,45.41,77,100,17.02,overcast clouds,2021-08-07 20:19:13
178,Grindavik,IS,63.8424,-22.4338,57.56,82,75,5.75,broken clouds,2021-08-07 20:19:13
179,Severo-Kurilsk,RU,50.6789,156.125,53.76,78,96,7.72,overcast clouds,2021-08-07 20:19:13
180,Igrim,RU,63.1906,64.4162,65.66,72,100,7.27,overcast clouds,2021-08-07 20:19:14
181,Billings,US,45.7833,-108.5007,89.29,27,40,12.66,scattered clouds,2021-08-07 20:19:14
182,Talnakh,RU,69.4865,88.3972,55.18,60,10,3.96,clear sky,2021-08-07 20:19:14
183,Lasa,IT,46.6166,10.7002,63.86,98,93,4.41,light rain,2021-08-07 20:19:15
184,Jahanabad,IN,25.2167,84.9833,78.64,82,100,5.59,overcast clouds,2021-08-07 20:19:15
185,Pisco,PE,-13.7,-76.2167,66.25,68,40,11.5,scattered clouds,2021-08-07 20:19:15
186,Coahuayana,MX,18.7333,-103.6833,85.48,63,82,6.96,broken clouds,2021-08-07 20:19:16
187,Bridlington,GB,54.0831,-0.1919,64.89,82,96,8.03,overcast clouds,2021-08-07 20:19:16
188,Homer,US,59.6425,-151.5483,69.08,76,1,6.91,clear sky,2021-08-07 20:19:16
189,Roald,NO,62.5833,6.1333,68.05,67,0,2.3,clear sky,2021-08-07 20:19:17
190,Thompson,CA,55.7435,-97.8558,77.16,57,20,8.05,smoke,2021-08-07 20:19:17
191,Dudinka,RU,69.4058,86.1778,54.09,58,14,7.18,few clouds,2021-08-07 20:19:17
192,Rubik,AL,41.7744,19.7861,71.26,55,0,4.18,clear sky,2021-08-07 20:19:17
193,Enzan,JP,35.7,138.7333,73.92,94,100,6.24,overcast clouds,2021-08-07 20:19:18
194,Mmathubudukwane,BW,-24.6,26.4333,56.26,19,0,3.58,clear sky,2021-08-07 20:19:18
195,Alice Springs,AU,-23.7,133.8833,36.95,60,0,5.75,clear sky,2021-08-07 20:19:18
196,Oruro,BO,-17.9833,-67.15,57.52,13,8,5.26,clear sky,2021-08-07 20:19:19
197,Valparaiso,CL,-33.0393,-71.6273,56.84,72,90,0.0,overcast clouds,2021-08-07 20:19:19
198,Huamachuco,PE,-7.8,-78.0667,66.45,26,3,7.4,clear sky,2021-08-07 20:19:19
199,Padang,ID,-0.9492,100.3543,77.45,89,26,4.16,scattered clouds,2021-08-07 20:19:20
200,Tuatapere,NZ,-46.1333,167.6833,35.82,96,100,2.95,overcast clouds,2021-08-07 20:19:20
201,Antofagasta,CL,-23.65,-70.4,60.08,72,19,8.08,few clouds,2021-08-07 20:19:15
202,Veinticinco De Mayo,AR,-35.4323,-60.1727,75.31,48,3,3.71,clear sky,2021-08-07 20:19:20
203,Arman,RU,59.7,150.1667,56.79,71,14,6.04,few clouds,2021-08-07 20:19:21
204,Komatipoort,ZA,-25.4332,31.9548,60.04,91,0,2.57,clear sky,2021-08-07 20:19:21
205,Waipawa,NZ,-41.4122,175.5153,51.03,86,100,8.86,overcast clouds,2021-08-07 20:19:21
206,Erzin,TR,36.9559,36.2,82.0,84,1,2.04,clear sky,2021-08-07 20:19:22
207,Guerrero Negro,MX,27.9769,-114.0611,82.02,54,47,10.85,scattered clouds,2021-08-07 20:19:22
208,Carson City,US,39.1638,-119.7674,93.96,13,1,1.01,haze,2021-08-07 20:15:15
209,Vila,PT,42.0304,-8.1588,54.7,73,20,3.62,few clouds,2021-08-07 20:19:22
210,Mongoumba,CF,3.6415,18.5936,70.34,97,100,1.99,overcast clouds,2021-08-07 20:19:23
211,Mahebourg,MU,-20.4081,57.7,70.25,78,40,8.05,scattered clouds,2021-08-07 20:19:23
212,Villa Bruzual,VE,9.3328,-69.1208,84.63,65,89,4.43,overcast clouds,2021-08-07 20:19:23
213,Sri Aman,MY,1.2376,111.4621,77.05,94,100,0.0,overcast clouds,2021-08-07 20:19:24
214,Ostersund,SE,63.1792,14.6357,61.25,51,90,5.75,light rain,2021-08-07 20:19:24
215,Port Keats,AU,-14.25,129.55,60.85,32,17,5.86,few clouds,2021-08-07 20:19:24
216,Liberal,US,37.0431,-100.921,101.43,30,1,19.57,clear sky,2021-08-07 20:19:25
217,Namie,JP,37.4833,141.0,79.72,97,100,2.75,light rain,2021-08-07 20:19:25
218,Pangody,RU,65.85,74.4859,64.78,55,0,6.51,clear sky,2021-08-07 20:19:25
219,Jambi,ID,-1.6,103.6167,74.44,98,98,3.15,overcast clouds,2021-08-07 20:19:26
220,Broome,US,42.2506,-75.833,86.05,65,75,1.01,broken clouds,2021-08-07 20:19:26
221,Gornopravdinsk,RU,60.05,69.9,63.52,90,100,4.59,overcast clouds,2021-08-07 20:19:26
222,Marshall,US,34.3834,-86.3333,87.62,74,1,3.44,clear sky,2021-08-07 20:19:27
223,Pak Chong,TH,14.708,101.4161,75.52,89,100,5.35,overcast clouds,2021-08-07 20:19:27
224,Westport,US,41.1415,-73.3579,89.28,55,1,1.01,clear sky,2021-08-07 20:19:27
225,Mitchell,US,43.7094,-98.0298,87.78,58,1,3.44,clear sky,2021-08-07 20:18:01
226,Nicosia,CY,35.1667,33.3667,84.29,69,40,11.5,scattered clouds,2021-08-07 20:19:27
227,Namibe,AO,-15.1961,12.1522,69.35,81,100,2.17,overcast clouds,2021-08-07 20:19:28
228,Qaqortoq,GL,60.7167,-46.0333,50.5,95,100,7.76,heavy intensity rain,2021-08-07 20:16:41
229,Harper,LR,4.375,-7.7169,77.31,79,98,11.77,overcast clouds,2021-08-07 20:19:28
230,Bubaque,GW,11.2833,-15.8333,80.08,74,13,12.84,few clouds,2021-08-07 20:19:29
231,Lata,PT,40.1629,-8.3327,64.92,80,32,6.42,scattered clouds,2021-08-07 20:19:29
232,Lewistown,US,40.5992,-77.5714,84.25,65,100,5.32,overcast clouds,2021-08-07 20:19:29
233,Codrington,AU,-38.2667,141.9667,42.35,91,7,6.91,clear sky,2021-08-07 20:19:30
234,Visby,SE,57.6409,18.296,56.95,84,42,12.75,scattered clouds,2021-08-07 20:19:30
235,Mut,TR,36.6439,33.4389,75.94,57,6,7.67,clear sky,2021-08-07 20:19:30
236,Luderitz,NA,-26.6481,15.1594,59.11,61,42,2.55,scattered clouds,2021-08-07 20:19:30
237,Palaikastron,GR,35.2,26.25,77.11,73,0,18.43,clear sky,2021-08-07 20:19:31
238,Mathathane,BW,-22.2687,28.7495,64.76,43,1,10.45,clear sky,2021-08-07 20:19:31
239,Saldanha,ZA,-33.0117,17.9442,48.25,73,100,6.26,overcast clouds,2021-08-07 20:19:31
240,Maria Aurora,PH,15.7967,121.4737,77.95,91,100,6.29,overcast clouds,2021-08-07 20:19:32
241,Kaabong,UG,3.4836,34.1492,68.09,54,62,6.29,broken clouds,2021-08-07 20:19:32
242,Kruisfontein,ZA,-34.0033,24.7314,55.45,72,100,4.36,overcast clouds,2021-08-07 20:19:32
243,Aykhal,RU,66.0,111.5,48.92,90,100,7.36,overcast clouds,2021-08-07 20:19:33
244,Ambilobe,MG,-13.2,49.05,69.22,85,87,3.18,overcast clouds,2021-08-07 20:19:33
245,Fort Nelson,CA,58.8053,-122.7002,53.19,94,90,12.66,light intensity shower rain,2021-08-07 20:19:33
246,Cherskiy,RU,68.75,161.3,54.91,50,81,4.61,broken clouds,2021-08-07 20:19:34
247,Balsas,BR,-7.5325,-46.0356,93.87,22,4,8.19,clear sky,2021-08-07 20:19:34
248,La Ronge,CA,55.1001,-105.2842,73.62,49,20,6.91,few clouds,2021-08-07 20:18:44
249,Tharad,IN,24.3961,71.6267,86.25,64,15,6.29,few clouds,2021-08-07 20:19:34
250,Taoudenni,ML,22.6783,-3.9836,107.47,9,1,8.9,clear sky,2021-08-07 20:19:35
251,Half Moon Bay,US,37.4636,-122.4286,92.05,65,1,10.36,clear sky,2021-08-07 20:19:35
252,Zeerust,ZA,-25.5369,26.0751,52.61,21,1,2.55,clear sky,2021-08-07 20:19:35
253,Dandong,CN,40.1292,124.3947,68.45,91,3,5.39,clear sky,2021-08-07 20:19:36
254,Tuni,IN,17.35,82.55,81.99,78,100,4.21,overcast clouds,2021-08-07 20:19:36
255,San Juan,AR,-31.5375,-68.5364,66.4,32,0,16.87,clear sky,2021-08-07 20:19:36
256,Georgetown,MY,5.4112,100.3354,82.33,89,20,2.3,thunderstorm,2021-08-07 20:19:37
257,Keningau,MY,5.3378,116.1602,73.85,98,91,1.74,light rain,2021-08-07 20:19:37
258,Cururupu,BR,-1.8283,-44.8683,83.82,64,46,2.75,scattered clouds,2021-08-07 20:19:37
259,Sao Miguel Do Araguaia,BR,-13.275,-50.1628,88.16,26,100,7.09,overcast clouds,2021-08-07 20:17:31
260,Hargeysa,SO,9.56,44.065,73.8,57,87,17.27,overcast clouds,2021-08-07 20:19:38
261,Ganzhou,CN,28.8184,115.4327,79.27,84,43,3.87,scattered clouds,2021-08-07 20:19:38
262,Praia Da Vitoria,PT,38.7333,-27.0667,75.45,57,40,10.76,scattered clouds,2021-08-07 20:19:38
263,Djibo,BF,14.1022,-1.6306,91.56,43,38,10.45,scattered clouds,2021-08-07 20:19:38
264,Kungurtug,RU,50.5994,97.5228,47.95,96,100,0.58,overcast clouds,2021-08-07 20:19:39
265,Odweyne,SO,9.4092,45.064,80.22,40,89,18.84,overcast clouds,2021-08-07 20:19:39
266,Kishtwar,IN,33.3167,75.7667,64.4,91,11,2.04,few clouds,2021-08-07 20:19:39
267,Akhtanizovskaya,RU,45.32,37.1,73.87,65,79,6.49,broken clouds,2021-08-07 20:19:40
268,Irkutsk,RU,52.2978,104.2964,61.57,100,40,11.18,smoke,2021-08-07 20:19:40
269,Dukat,RU,62.55,155.55,46.35,93,100,4.83,overcast clouds,2021-08-07 20:19:40
270,Chiriqui Grande,PA,8.95,-82.1167,86.07,77,91,4.54,overcast clouds,2021-08-07 20:19:41
271,Muros,ES,42.7762,-9.0603,64.24,77,1,7.05,clear sky,2021-08-07 20:19:41
272,Dikson,RU,73.5069,80.5464,49.55,72,11,3.74,few clouds,2021-08-07 20:19:41
273,Itea,GR,38.4333,22.4167,82.99,49,0,1.1,clear sky,2021-08-07 20:19:42
274,Bonthe,SL,7.5264,-12.505,77.43,76,51,7.18,broken clouds,2021-08-07 20:19:42
275,Atambua,ID,-9.1061,124.8925,65.79,80,35,6.2,scattered clouds,2021-08-07 20:19:42
276,Omagari,JP,39.45,140.4833,73.89,93,100,3.0,overcast clouds,2021-08-07 20:19:43
277,Novyy Urgal,RU,51.0736,132.5642,53.76,96,100,5.08,overcast clouds,2021-08-07 20:19:43
278,Pacific Grove,US,36.6177,-121.9166,88.81,76,20,4.0,few clouds,2021-08-07 20:17:16
279,Nabire,ID,-3.3667,135.4833,74.55,91,85,2.84,overcast clouds,2021-08-07 20:19:43
280,Blackfoot,US,43.1905,-112.345,82.18,20,0,12.88,clear sky,2021-08-07 20:19:44
281,Ilulissat,GL,69.2167,-51.1,42.69,70,100,7.83,overcast clouds,2021-08-07 20:19:44
282,Narsaq,GL,60.9167,-46.05,50.22,94,100,9.51,heavy intensity rain,2021-08-07 20:19:44
283,Bossangoa,CF,6.4926,17.4552,69.01,98,100,4.29,overcast clouds,2021-08-07 20:19:45
284,Gorontalo,ID,0.5412,123.0595,75.0,92,98,2.73,overcast clouds,2021-08-07 20:19:45
285,Torbay,CA,47.6666,-52.7314,74.57,72,75,25.32,broken clouds,2021-08-07 20:19:45
286,Tres Arroyos,AR,-38.3739,-60.2798,56.26,46,97,12.59,overcast clouds,2021-08-07 20:19:46
287,Hambantota,LK,6.1241,81.1185,79.14,81,100,20.33,overcast clouds,2021-08-07 20:19:46
288,Korla,CN,41.7597,86.1469,77.95,36,4,4.23,clear sky,2021-08-07 20:19:46
289,Nouadhibou,MR,20.931,-17.0347,71.58,83,0,11.5,clear sky,2021-08-07 20:19:47
290,Hualmay,PE,-11.0964,-77.6139,67.64,70,18,12.97,few clouds,2021-08-07 20:19:47
291,Moose Factory,CA,51.2585,-80.6094,62.6,59,1,12.66,clear sky,2021-08-07 20:19:47
292,Honiara,SB,-9.4333,159.95,76.95,84,100,2.98,overcast clouds,2021-08-07 20:19:48
293,Seoul,KR,37.5683,126.9778,76.44,88,0,5.75,clear sky,2021-08-07 20:16:45
294,Ibanda,TZ,-2.7974,32.4746,70.2,53,24,1.43,few clouds,2021-08-07 20:19:48
295,Pingliang,CN,35.5392,106.6861,65.73,62,88,2.68,overcast clouds,2021-08-07 20:19:49
296,Okhotsk,RU,59.3833,143.3,59.05,61,5,7.34,clear sky,2021-08-07 20:19:49
297,Provideniya,RU,64.3833,-173.3,44.31,83,100,7.0,light rain,2021-08-07 20:19:49
298,Ketchikan,US,55.3422,-131.6461,64.87,63,40,10.36,scattered clouds,2021-08-07 20:19:50
299,Upernavik,GL,72.7868,-56.1549,40.86,95,100,9.15,overcast clouds,2021-08-07 20:19:50
300,Merauke,ID,-8.4667,140.3333,73.6,82,40,11.56,scattered clouds,2021-08-07 20:19:50
301,Beloha,MG,-25.1667,45.05,63.34,86,0,4.59,clear sky,2021-08-07 20:19:50
302,Alofi,NU,-19.0595,-169.9187,75.09,73,40,10.36,scattered clouds,2021-08-07 20:19:51
303,Portland,US,45.5234,-122.6762,86.29,56,75,1.99,broken clouds,2021-08-07 20:18:58
304,Nalgonda,IN,17.05,79.2667,84.15,58,88,3.29,overcast clouds,2021-08-07 20:19:51
305,Atar,MR,20.5169,-13.0499,96.58,35,0,12.33,clear sky,2021-08-07 20:19:51
306,Safonovo,RU,55.15,33.2167,59.88,95,100,5.55,overcast clouds,2021-08-07 20:19:52
307,Otane,NZ,-39.8833,176.6333,48.0,79,100,2.24,overcast clouds,2021-08-07 20:19:52
308,Saint-Francois,FR,46.4154,3.9054,63.84,68,0,4.61,clear sky,2021-08-07 20:19:52
309,Lagoa,PT,39.05,-27.9833,68.43,66,10,11.01,clear sky,2021-08-07 20:19:53
310,Lander,US,42.833,-108.7307,80.17,27,1,9.13,clear sky,2021-08-07 20:19:53
311,The Pas,CA,53.8251,-101.2541,77.02,69,75,14.56,broken clouds,2021-08-07 20:19:53
312,Tarakan,ID,3.3,117.6333,80.55,81,96,2.35,moderate rain,2021-08-07 20:19:54
313,Maungatapere,NZ,-35.75,174.2,48.07,90,100,2.68,overcast clouds,2021-08-07 20:19:54
314,Akureyri,IS,65.6835,-18.0878,57.13,82,90,5.75,overcast clouds,2021-08-07 20:19:54
315,Kemijarvi,FI,66.7131,27.4306,55.56,71,6,5.64,clear sky,2021-08-07 20:19:55
316,Havoysund,NO,70.9963,24.6622,61.68,73,100,5.88,overcast clouds,2021-08-07 20:19:55
317,Laguna,US,38.421,-121.4238,99.21,37,1,5.75,clear sky,2021-08-07 20:17:52
318,Ahipara,NZ,-35.1667,173.1667,54.23,87,99,8.88,overcast clouds,2021-08-07 20:19:55
319,Bangor,GB,54.6534,-5.669,61.09,93,99,1.01,overcast clouds,2021-08-07 20:19:56
320,Arauco,CL,-37.2463,-73.3175,57.22,52,75,11.03,broken clouds,2021-08-07 20:19:56
321,Husavik,IS,66.0449,-17.3389,57.11,74,84,0.96,broken clouds,2021-08-07 20:19:56
322,Sorland,NO,67.667,12.6934,57.65,79,100,12.55,overcast clouds,2021-08-07 20:19:57
323,Ixtapa,MX,20.7,-105.2,88.23,70,20,9.22,few clouds,2021-08-07 20:19:57
324,Terra Santa,BR,-2.1042,-56.4869,94.64,30,28,5.86,scattered clouds,2021-08-07 20:19:57
325,Touros,BR,-5.1989,-35.4608,81.5,69,46,19.71,scattered clouds,2021-08-07 20:19:58
326,Kuytun,RU,54.3419,101.5036,53.47,82,5,4.47,clear sky,2021-08-07 20:19:58
327,Falmouth,GB,50.1544,-5.0711,59.9,92,20,4.0,few clouds,2021-08-07 20:19:58
328,Malakal,SS,9.5334,31.6605,73.0,96,100,4.85,overcast clouds,2021-08-07 20:16:32
329,Camana,PE,-16.6228,-72.7111,64.45,75,53,7.94,broken clouds,2021-08-07 20:19:59
330,Usinsk,RU,65.9939,57.5281,51.44,84,100,11.63,overcast clouds,2021-08-07 20:19:59
331,Terrace,CA,54.5163,-128.6035,64.31,63,90,4.61,overcast clouds,2021-08-07 20:17:32
332,Bambous Virieux,MU,-20.3428,57.7575,70.21,78,40,8.05,light rain,2021-08-07 20:19:59
333,Davidson,US,36.1501,-86.7833,90.1,55,75,4.0,broken clouds,2021-08-07 20:19:49
334,Nome,US,64.5011,-165.4064,48.27,81,90,9.22,overcast clouds,2021-08-07 20:20:00
335,Shimoda,JP,34.6667,138.95,78.08,91,100,27.31,heavy intensity rain,2021-08-07 20:20:00
336,Kota Bahru,MY,6.1333,102.2386,77.65,90,57,2.73,broken clouds,2021-08-07 20:15:21
337,Mosquera,CO,4.7059,-74.2302,61.77,70,69,4.16,broken clouds,2021-08-07 20:20:00
338,Jales,BR,-20.2689,-50.5458,83.68,22,5,7.78,clear sky,2021-08-07 20:20:01
339,Makaha,US,21.4694,-158.2175,84.11,61,75,10.36,broken clouds,2021-08-07 20:20:01
340,Elwood,AU,-37.8817,144.983,50.49,91,100,4.61,fog,2021-08-07 20:20:01
341,Fjerritslev,DK,57.0813,9.2664,58.05,80,31,1.41,scattered clouds,2021-08-07 20:20:02
342,Puerto Escondido,MX,15.85,-97.0667,86.83,66,90,13.8,overcast clouds,2021-08-07 20:20:02
343,Kirkcudbright,GB,54.8383,-4.0491,59.94,87,52,5.41,broken clouds,2021-08-07 20:20:02
344,Vitim,RU,59.4511,112.5578,55.98,98,100,2.57,overcast clouds,2021-08-07 20:20:04
345,Issenye,TZ,-2.0,34.3333,73.27,52,84,3.91,broken clouds,2021-08-07 20:20:04
346,Xiongyue,CN,40.1774,122.1228,72.84,82,33,2.8,scattered clouds,2021-08-07 20:20:04
347,Yahotyn,UA,50.2798,31.7625,58.91,70,100,8.39,overcast clouds,2021-08-07 20:20:05
348,Batagay-Alyta,RU,67.8006,130.4114,57.0,50,34,3.44,scattered clouds,2021-08-07 20:20:05
349,Silver City,US,32.7701,-108.2803,90.91,26,40,11.99,scattered clouds,2021-08-07 20:20:05
350,San Cristobal,VE,7.7669,-72.225,84.38,47,60,6.85,broken clouds,2021-08-07 20:20:06
351,Muscat,OM,23.6139,58.5922,93.22,48,85,5.99,overcast clouds,2021-08-07 20:20:06
352,Wodonga,AU,-36.1167,146.8833,41.95,91,75,1.01,broken clouds,2021-08-07 20:17:18
353,Boende,CD,-0.2167,20.8667,70.2,89,100,3.09,overcast clouds,2021-08-07 20:20:07
354,Castanos,MX,26.7833,-101.4167,87.39,37,20,4.61,few clouds,2021-08-07 20:20:07
355,Wajima,JP,37.4,136.9,81.73,86,5,10.33,clear sky,2021-08-07 20:20:07
356,Derzhavinsk,KZ,51.1,66.3167,66.04,49,96,9.71,overcast clouds,2021-08-07 20:20:08
357,Mandalgovi,MN,45.7625,106.2708,58.08,65,3,13.96,clear sky,2021-08-07 20:20:08
358,Salamiyah,SY,35.0113,37.0532,79.05,62,0,10.27,clear sky,2021-08-07 20:20:08
359,Tukrah,LY,32.5341,20.5791,80.2,76,0,9.66,clear sky,2021-08-07 20:20:09
360,Ogaminana,NG,7.5946,6.2248,72.0,95,100,4.07,overcast clouds,2021-08-07 20:20:09
361,Satipo,PE,-11.2522,-74.6386,89.35,36,18,0.38,few clouds,2021-08-07 20:20:09
362,Porto Novo,BJ,6.4965,2.6036,78.62,93,100,5.53,moderate rain,2021-08-07 20:20:09
363,Puerto Madryn,AR,-42.7692,-65.0385,56.16,28,0,26.49,clear sky,2021-08-07 20:20:10
364,Fairbanks,US,64.8378,-147.7164,59.09,91,90,1.99,light rain,2021-08-07 20:15:32
365,Waingapu,ID,-9.6567,120.2641,73.51,81,57,9.6,broken clouds,2021-08-07 20:20:10
366,Trelew,AR,-43.249,-65.3051,55.56,28,0,27.69,clear sky,2021-08-07 20:20:11
367,Cabo San Lucas,MX,22.8909,-109.9124,90.7,66,40,13.8,thunderstorm,2021-08-07 20:20:11
368,San Patricio,US,28.017,-97.5169,95.41,43,0,16.89,clear sky,2021-08-07 20:20:11
369,Emirdag,TR,39.0197,31.15,63.97,78,6,7.16,clear sky,2021-08-07 20:20:12
370,Ust-Omchug,RU,61.15,149.6333,51.71,74,34,2.75,scattered clouds,2021-08-07 20:20:12
371,Flinders,AU,-34.5833,150.8552,55.2,86,50,9.62,scattered clouds,2021-08-07 20:20:13
372,Kidal,ML,18.4411,1.4078,90.25,37,87,14.03,overcast clouds,2021-08-07 20:20:13
373,Coihaique,CL,-45.5752,-72.0662,45.21,61,40,4.61,scattered clouds,2021-08-07 20:20:13
374,Deputatskiy,RU,69.3,139.9,49.08,76,74,3.15,broken clouds,2021-08-07 20:20:14
375,Guane,CU,22.2025,-84.0875,89.91,54,48,5.75,scattered clouds,2021-08-07 20:20:14
376,Sambava,MG,-14.2667,50.1667,70.45,85,100,10.25,light rain,2021-08-07 20:20:14
377,Tiksi,RU,71.6872,128.8694,45.86,83,48,4.16,scattered clouds,2021-08-07 20:20:15
378,Ambon,ID,-3.6954,128.1814,75.34,100,40,3.44,thunderstorm with light rain,2021-08-07 20:20:15
379,Omsukchan,RU,62.5333,155.8,48.36,90,100,4.83,overcast clouds,2021-08-07 20:20:15
380,Iona,US,26.5204,-81.964,92.98,68,1,1.01,clear sky,2021-08-07 20:20:16
381,Kieta,PG,-6.2167,155.6333,75.78,92,100,2.01,light rain,2021-08-07 20:20:16
382,Plettenberg Bay,ZA,-34.0527,23.3716,59.14,66,100,2.19,overcast clouds,2021-08-07 20:20:17
383,Ust-Kuyga,RU,70.0167,135.6,60.04,55,98,1.88,overcast clouds,2021-08-07 20:20:17
384,Ormara,PK,25.2088,64.6357,80.17,84,91,7.61,overcast clouds,2021-08-07 20:20:17
385,China,MX,25.7,-99.2333,99.91,27,0,17.25,clear sky,2021-08-07 20:20:18
386,Andros Town,BS,24.7,-77.7667,89.56,63,0,11.39,clear sky,2021-08-07 20:20:19
387,Henties Bay,NA,-22.116,14.2845,55.85,78,5,7.72,clear sky,2021-08-07 20:20:19
388,Lantana,US,26.5867,-80.052,92.01,76,1,3.0,thunderstorm,2021-08-07 20:20:19
389,Solnechnyy,RU,50.7214,136.6319,48.94,98,100,9.08,overcast clouds,2021-08-07 20:20:20
390,Bandarbeyla,SO,9.4942,50.8122,75.43,85,8,29.46,clear sky,2021-08-07 20:17:19
391,Hemer,DE,51.3833,7.7667,65.43,70,0,11.5,clear sky,2021-08-07 20:20:20
392,Bonfim,BR,3.0833,-59.95,87.03,59,98,2.08,light rain,2021-08-07 20:20:21
393,Kurush,RU,41.2841,47.8345,53.47,52,0,7.09,clear sky,2021-08-07 20:20:21
394,Krasnoselkup,RU,65.7,82.4667,62.89,65,95,4.92,overcast clouds,2021-08-07 20:20:21
395,Phalodi,IN,27.1333,72.3667,92.34,43,62,15.52,broken clouds,2021-08-07 20:20:22
396,Bria,CF,6.5423,21.9863,68.34,96,100,1.39,overcast clouds,2021-08-07 20:20:22
397,Bilma,NE,18.6853,12.9164,98.74,21,88,13.09,overcast clouds,2021-08-07 20:20:22
398,Quelimane,MZ,-17.8786,36.8883,69.75,83,0,3.44,clear sky,2021-08-07 20:20:23
399,Rio Grande,BR,-32.035,-52.0986,73.51,81,0,11.1,clear sky,2021-08-07 20:18:36
400,Ulaangom,MN,49.9811,92.0667,58.69,63,100,1.97,overcast clouds,2021-08-07 20:17:53
401,Eyl,SO,7.9803,49.8164,76.05,81,31,24.47,scattered clouds,2021-08-07 20:20:23
402,Ucluelet,CA,48.9329,-125.5528,64.71,92,100,6.38,overcast clouds,2021-08-07 20:18:40
403,Shenjiamen,CN,29.9576,122.298,79.52,86,3,17.87,clear sky,2021-08-07 20:20:23
404,Idukki,IN,9.85,76.9667,69.55,99,100,2.1,overcast clouds,2021-08-07 20:20:24
405,Biltine,TD,14.5333,20.9167,80.62,64,74,9.33,broken clouds,2021-08-07 20:20:24
406,Caravelas,BR,-17.7125,-39.2481,68.04,84,100,10.94,overcast clouds,2021-08-07 20:20:24
407,Calvia,ES,39.5657,2.5062,82.92,78,12,5.75,few clouds,2021-08-07 20:20:25
408,Gwadar,PK,25.1216,62.3254,80.62,85,99,5.66,overcast clouds,2021-08-07 20:16:19
409,Sinnamary,GF,5.3833,-52.95,79.79,86,99,6.06,moderate rain,2021-08-07 20:20:25
410,Pontal Do Parana,BR,-25.6533,-48.5128,71.26,89,98,4.16,overcast clouds,2021-08-07 20:20:26
411,Naliya,IN,23.2667,68.8333,82.26,73,68,12.55,broken clouds,2021-08-07 20:20:26
412,Pulandian,CN,39.3953,121.9669,73.53,83,27,3.53,scattered clouds,2021-08-07 20:20:26
413,Miquelon,PM,47.0975,-56.3814,66.2,93,64,12.28,broken clouds,2021-08-07 20:20:27
414,Norman Wells,CA,65.282,-126.8329,51.84,62,90,10.36,overcast clouds,2021-08-07 20:20:27
415,Bom Jardim,BR,-7.7958,-35.5872,75.54,74,40,14.58,scattered clouds,2021-08-07 20:20:27
416,Mana,GF,5.6592,-53.7767,81.32,82,83,3.2,light rain,2021-08-07 20:20:28
417,Canutama,BR,-6.5339,-64.3831,100.06,20,0,1.5,clear sky,2021-08-07 20:20:28
418,Anakapalle,IN,17.6833,83.0167,82.35,83,96,4.68,overcast clouds,2021-08-07 20:20:28
419,Dingle,PH,10.9995,122.6711,76.93,92,89,5.23,light rain,2021-08-07 20:20:29
420,Saint-Augustin,CA,51.226,-58.6502,71.28,73,100,11.16,overcast clouds,2021-08-07 20:20:29
421,Lingyuan,CN,41.24,119.4011,65.66,86,4,1.66,clear sky,2021-08-07 20:20:29
422,Udachnyy,RU,66.4167,112.4,57.42,66,100,3.76,overcast clouds,2021-08-07 20:20:30
423,Acarau,BR,-2.8856,-40.12,82.63,65,87,19.22,overcast clouds,2021-08-07 20:20:30
424,Moron,AR,-34.6534,-58.6198,80.01,68,8,1.36,clear sky,2021-08-07 20:20:30
425,Hami,CN,42.8,93.45,79.86,22,3,8.41,clear sky,2021-08-07 20:20:31
426,Dustlik,UZ,40.5247,68.0358,78.58,22,3,4.76,clear sky,2021-08-07 20:20:31
427,Bac Lieu,VN,9.285,105.7244,79.88,87,95,9.15,overcast clouds,2021-08-07 20:17:05
428,Buala,SB,-8.145,159.5921,78.06,81,100,2.39,light rain,2021-08-07 20:20:31
429,Ancud,CL,-41.8697,-73.8203,53.42,70,79,8.86,broken clouds,2021-08-07 20:20:32
430,Morgan City,US,29.6994,-91.2068,95.04,48,0,5.57,clear sky,2021-08-07 20:20:32
431,Xining,CN,36.6167,101.7667,57.4,77,100,2.91,overcast clouds,2021-08-07 20:20:33
432,Bassila,BJ,9.0081,1.6654,73.06,87,100,3.96,overcast clouds,2021-08-07 20:20:34
433,Saint Anthony,US,45.0205,-93.218,73.54,91,90,4.0,mist,2021-08-07 20:20:34
434,Komarikhinskiy,RU,58.0979,57.1163,50.99,90,1,4.47,clear sky,2021-08-07 20:20:34
435,Escuintla,GT,14.305,-90.785,85.62,70,82,3.47,broken clouds,2021-08-07 20:20:35
436,Vung Tau,VN,10.346,107.0843,80.19,85,100,11.99,overcast clouds,2021-08-07 20:20:35
437,Tiznit,MA,29.5833,-9.5,65.82,78,15,6.24,few clouds,2021-08-07 20:20:36
438,Rio Verde De Mato Grosso,BR,-18.9181,-54.8442,91.53,18,0,3.91,clear sky,2021-08-07 20:18:50
439,Santa Rosa,PH,14.3122,121.1114,83.1,85,99,5.97,overcast clouds,2021-08-07 20:20:36
440,Betioky,MG,-23.7167,44.3833,63.3,59,2,3.91,clear sky,2021-08-07 20:20:36
441,Conakry,GN,9.538,-13.6773,78.87,78,20,6.91,few clouds,2021-08-07 20:20:37
442,Eirunepe,BR,-6.6603,-69.8736,98.22,23,0,0.27,clear sky,2021-08-07 20:20:37
443,Aldan,RU,58.6031,125.3894,55.69,85,33,5.95,scattered clouds,2021-08-07 20:20:37
444,Aromashevo,RU,56.8602,68.6375,57.96,88,97,7.43,overcast clouds,2021-08-07 20:20:38
445,Los Alamos,US,35.8881,-106.307,89.02,14,1,3.0,clear sky,2021-08-07 20:20:38
446,Belmonte,BR,-15.8631,-38.8828,75.2,67,19,11.43,few clouds,2021-08-07 20:20:38
447,Walvis Bay,NA,-22.9575,14.5053,56.08,87,1,3.44,clear sky,2021-08-07 20:20:39
448,Kalmunai,LK,7.4167,81.8167,79.16,85,100,4.45,overcast clouds,2021-08-07 20:20:39
449,Silleda,ES,42.696,-8.2465,59.61,75,84,3.22,broken clouds,2021-08-07 20:20:39
450,Chake Chake,TZ,-5.2459,39.7666,72.48,84,27,7.61,scattered clouds,2021-08-07 20:20:40
451,Bilibino,RU,68.0546,166.4372,50.13,60,12,8.43,few clouds,2021-08-07 20:20:40
452,Dolinsk,RU,47.35,142.8,57.06,80,100,17.02,overcast clouds,2021-08-07 20:20:40
453,Yar-Sale,RU,66.8333,70.8333,58.05,84,6,10.78,clear sky,2021-08-07 20:20:40
454,Tabuk,PH,17.4189,121.4443,76.98,79,100,2.44,overcast clouds,2021-08-07 20:20:41
455,Talara,PE,-4.5772,-81.2719,74.16,64,0,17.27,clear sky,2021-08-07 20:20:41
456,Nhlangano,SZ,-27.1167,31.2,50.77,74,0,2.21,clear sky,2021-08-07 20:20:41
457,Novo Aripuana,BR,-5.1206,-60.3797,96.64,27,62,3.11,broken clouds,2021-08-07 20:20:42
458,Zyryanovsk,KZ,49.7386,84.2719,56.23,77,6,1.68,clear sky,2021-08-07 20:20:42
459,Vikhorevka,RU,56.1201,101.1636,51.39,61,2,3.24,clear sky,2021-08-07 20:20:42
460,Safaga,EG,26.7292,33.9365,92.79,36,0,5.44,clear sky,2021-08-07 20:20:43
461,Virginia Beach,US,36.8529,-75.978,78.85,86,90,12.66,overcast clouds,2021-08-07 20:19:20
462,Mokhsogollokh,RU,61.4681,128.9203,55.08,65,18,8.57,few clouds,2021-08-07 20:20:43
463,Wewak,PG,-3.5534,143.6268,76.37,89,98,4.61,overcast clouds,2021-08-07 20:20:44
464,Zhigansk,RU,66.7697,123.3711,64.99,39,99,17.96,overcast clouds,2021-08-07 20:20:44
465,Viedma,AR,-40.8135,-62.9967,55.04,23,100,13.53,overcast clouds,2021-08-07 20:20:44
466,Tangshan,CN,39.6333,118.1833,71.17,87,0,1.97,light rain,2021-08-07 20:20:45
467,Hare Bay,CA,48.8499,-54.0148,79.95,53,100,13.2,overcast clouds,2021-08-07 20:20:45
468,Bourail,NC,-21.5667,165.4833,63.25,78,100,3.27,overcast clouds,2021-08-07 20:20:45
469,Dondo,MZ,-19.6094,34.7431,65.71,91,0,5.26,clear sky,2021-08-07 20:20:45
470,Shonguy,RU,68.7526,33.146,57.27,82,0,6.71,clear sky,2021-08-07 20:20:46
471,Piacabucu,BR,-10.4056,-36.4344,74.41,67,5,12.37,clear sky,2021-08-07 20:20:46
472,Canguaretama,BR,-6.38,-35.1289,81.09,73,66,18.05,broken clouds,2021-08-07 20:20:46
473,Harbour Breton,CA,47.4833,-55.7983,62.17,94,99,10.56,overcast clouds,2021-08-07 20:20:47
474,Banyo,CM,6.75,11.8167,64.17,96,85,2.75,light rain,2021-08-07 20:20:47
475,Hidalgo,MX,20.5,-99.0,77.02,41,15,13.94,few clouds,2021-08-07 20:20:47
476,Sinjai,ID,-5.1241,120.253,78.19,78,100,4.07,overcast clouds,2021-08-07 20:20:47
477,Ostrovnoy,RU,68.0531,39.5131,55.63,83,15,9.48,few clouds,2021-08-07 20:20:48
478,Tual,ID,-5.6667,132.75,80.31,79,69,22.46,broken clouds,2021-08-07 20:20:48
479,Vao,NC,-22.6667,167.4833,67.23,65,100,7.58,overcast clouds,2021-08-07 20:20:48
480,Kargasok,RU,59.0556,80.8572,61.77,88,76,5.39,broken clouds,2021-08-07 20:20:49
481,Mayo,US,38.8876,-76.5119,77.38,91,75,1.99,light rain,2021-08-07 20:20:49
482,Khandyga,RU,62.6667,135.6,55.9,64,7,2.44,clear sky,2021-08-07 20:20:49
483,Matara,LK,5.9485,80.5353,77.63,88,100,13.4,overcast clouds,2021-08-07 20:19:51
484,Kloulklubed,PW,7.0419,134.2556,79.3,80,100,7.92,moderate rain,2021-08-07 20:20:50
485,San Quintin,MX,30.4833,-115.95,73.89,66,4,10.63,clear sky,2021-08-07 20:20:50
486,Qalyub,EG,30.1792,31.2056,88.59,56,0,10.31,clear sky,2021-08-07 20:20:50
487,Poya,NC,-21.35,165.15,64.09,78,100,3.53,light rain,2021-08-07 20:20:51
488,Canto Do Buriti,BR,-8.11,-42.9444,87.69,29,1,10.71,clear sky,2021-08-07 20:20:51
489,Alta Floresta,BR,-9.8756,-56.0861,94.82,21,20,3.44,few clouds,2021-08-07 20:20:51
490,Kampot,KH,10.6167,104.1833,79.16,88,99,6.58,overcast clouds,2021-08-07 20:20:52
491,Wanning,CN,18.8003,110.3967,81.34,89,100,10.0,overcast clouds,2021-08-07 20:20:52
492,Bengkulu,ID,-3.8004,102.2655,75.76,91,11,3.6,few clouds,2021-08-07 20:20:52
493,Ukiah,US,39.1502,-123.2078,101.12,23,40,5.75,scattered clouds,2021-08-07 20:20:52
494,Manitouwadge,CA,49.1215,-85.8403,66.92,34,95,5.88,overcast clouds,2021-08-07 20:20:53
495,Atasu,KZ,48.6814,71.6433,68.59,61,88,3.51,overcast clouds,2021-08-07 20:20:53
496,Nakamura,JP,32.9833,132.9333,76.1,94,97,3.02,overcast clouds,2021-08-07 20:20:53
497,Togur,RU,58.3631,82.8265,59.94,94,96,4.9,overcast clouds,2021-08-07 20:20:54
498,Quatre Cocos,MU,-20.2078,57.7625,70.09,77,61,11.01,light rain,2021-08-07 20:20:54
499,Xinzhou,CN,38.4092,112.7333,68.07,85,62,1.57,broken clouds,2021-08-07 20:20:54
500,Leopold,AU,-38.1833,144.4667,47.64,95,66,5.01,broken clouds,2021-08-07 20:20:55
501,Huarmey,PE,-10.0681,-78.1522,69.33,70,0,13.89,clear sky,2021-08-07 20:20:55
502,Lufkin,US,31.3382,-94.7291,91.6,41,56,6.89,broken clouds,2021-08-07 20:20:55
503,Santa Maria Di Sala,IT,45.5069,12.0297,78.69,79,23,9.62,few clouds,2021-08-07 20:20:56
504,Mazatlan,MX,23.2167,-106.4167,87.91,77,75,5.99,broken clouds,2021-08-07 20:19:52
505,Marang,MY,5.2056,103.2059,80.51,82,73,1.57,broken clouds,2021-08-07 20:20:56
506,Bairiki,KI,1.3292,172.9752,82.4,69,20,5.75,few clouds,2021-08-07 20:20:56
507,Pak Thong Chai,TH,14.7226,102.0251,76.86,88,100,4.47,overcast clouds,2021-08-07 20:20:57
508,Pouebo,NC,-20.4,164.5667,65.98,75,90,8.05,overcast clouds,2021-08-07 20:20:57
509,Umba,RU,66.6871,34.3429,52.23,76,1,4.83,clear sky,2021-08-07 20:20:57
510,Namatanai,PG,-3.6667,152.4333,77.4,82,79,6.06,moderate rain,2021-08-07 20:18:19
511,Takhtamygda,RU,54.1,123.5667,57.65,98,100,6.22,light rain,2021-08-07 20:20:57
512,Mujiayingzi,CN,42.1167,118.7833,66.7,61,5,5.46,clear sky,2021-08-07 20:20:58
513,Savalou,BJ,7.9281,1.9756,75.16,85,70,3.33,broken clouds,2021-08-07 20:20:58
514,Saint-Pierre,RE,-21.3393,55.4781,71.24,76,20,4.61,few clouds,2021-08-07 20:20:58
515,La Palma,US,33.8464,-118.0467,102.76,63,1,5.01,clear sky,2021-08-07 20:20:59
516,Maragogi,BR,-9.0122,-35.2225,74.46,74,67,15.95,broken clouds,2021-08-07 20:20:59
517,Maturin,VE,9.75,-63.1767,88.23,58,15,2.37,few clouds,2021-08-07 20:20:59
518,Carman,CA,49.4992,-98.0016,87.91,32,75,11.5,broken clouds,2021-08-07 20:20:04
519,Teeli,RU,51.0333,90.2333,50.5,89,64,1.86,broken clouds,2021-08-07 20:21:00
520,Paamiut,GL,61.994,-49.6678,41.81,94,100,9.19,moderate rain,2021-08-07 20:21:00
521,Mogadishu,SO,2.0371,45.3438,76.33,84,65,21.88,broken clouds,2021-08-07 20:21:01
522,Elliot,ZA,-31.3333,27.85,48.54,23,6,7.54,clear sky,2021-08-07 20:21:01
523,Richards Bay,ZA,-28.783,32.0377,61.23,83,0,4.16,clear sky,2021-08-07 20:21:01
524,Cockburn Town,TC,21.4612,-71.1419,85.96,66,40,16.11,scattered clouds,2021-08-07 20:19:10
525,Shahrud,IR,36.4182,54.9763,79.07,17,0,3.44,clear sky,2021-08-07 20:21:02
526,Bandar-E Anzali,IR,37.4727,49.4622,81.27,75,12,1.66,few clouds,2021-08-07 20:21:02
527,Kuruman,ZA,-27.4524,23.4325,47.98,25,0,1.7,clear sky,2021-08-07 20:21:03
528,Altay,CN,47.8667,88.1167,59.67,52,6,4.81,clear sky,2021-08-07 20:21:03
529,Calbuco,CL,-41.768,-73.1273,49.21,68,94,2.73,overcast clouds,2021-08-07 20:21:04
530,Whitecourt,CA,54.1502,-115.6855,67.24,52,75,3.44,broken clouds,2021-08-07 20:21:05
531,Bambanglipuro,ID,-7.95,110.2833,75.4,88,68,2.8,broken clouds,2021-08-07 20:21:05
532,Forio,IT,40.7342,13.8646,80.46,80,0,1.01,clear sky,2021-08-07 20:21:06
533,Ekibastuz,KZ,51.6667,75.3667,74.35,49,100,7.16,overcast clouds,2021-08-07 20:21:06
534,Benguela,AO,-12.5763,13.4055,71.98,84,39,1.81,scattered clouds,2021-08-07 20:21:06
535,San Jose De Sisa,PE,-6.6167,-76.6915,91.92,39,37,3.13,scattered clouds,2021-08-07 20:21:07
536,Opunake,NZ,-39.4556,173.8583,48.61,73,100,18.14,overcast clouds,2021-08-07 20:21:08
537,Boca Do Acre,BR,-8.7522,-67.3978,99.77,20,2,2.13,clear sky,2021-08-07 20:21:08
538,Pecos,US,31.4229,-103.4932,99.43,23,1,8.05,clear sky,2021-08-07 20:20:58
539,Auki,SB,-8.7676,160.7034,76.48,85,99,3.22,overcast clouds,2021-08-07 20:21:08
540,Miranda De Ebro,ES,42.6865,-2.947,62.19,81,56,4.65,broken clouds,2021-08-07 20:21:09
541,Uruzgan,AF,32.8333,66.0,73.49,16,0,1.48,clear sky,2021-08-07 20:21:09
542,Rio Gallegos,AR,-51.6226,-69.2181,41.05,56,20,29.93,few clouds,2021-08-07 20:17:42
543,Shasta Lake,US,40.6804,-122.3708,90.32,9,1,6.6,clear sky,2021-08-07 20:21:10
544,Amapa,BR,1.0,-52.0,82.02,67,100,1.25,overcast clouds,2021-08-07 20:21:10
545,Dhemaji,IN,27.4833,94.5833,79.0,92,100,1.3,overcast clouds,2021-08-07 20:21:10
546,Constitucion,CL,-35.3333,-72.4167,55.33,65,100,13.71,overcast clouds,2021-08-07 20:21:11
547,Sucre,BO,-19.0333,-65.2627,69.96,18,4,8.05,clear sky,2021-08-07 20:21:11
548,Enumclaw,US,47.2043,-121.9915,71.82,89,100,1.52,overcast clouds,2021-08-07 20:18:12
549,Turan,VN,16.0678,108.2208,87.85,66,20,1.14,few clouds,2021-08-07 20:21:12
550,Oksfjord,NO,70.2396,22.3479,64.47,67,100,4.36,overcast clouds,2021-08-07 20:21:12
551,Muriwai Beach,NZ,-36.8167,174.45,52.36,96,60,11.63,broken clouds,2021-08-07 20:21:12
552,Tucurui,BR,-3.7661,-49.6725,94.1,31,13,4.54,few clouds,2021-08-07 20:21:13
553,Madimba,TZ,-10.4,40.3333,70.61,85,1,5.99,clear sky,2021-08-07 20:21:13
554,Tateyama,JP,34.9833,139.8667,78.82,94,75,14.97,heavy intensity shower rain,2021-08-07 20:21:14
555,Nchelenge,ZM,-9.3451,28.734,69.78,40,14,4.97,few clouds,2021-08-07 20:21:14
556,Shangzhi,CN,45.2167,127.9667,63.05,90,0,1.74,clear sky,2021-08-07 20:21:14
557,Guozhen,CN,34.3659,107.359,76.14,62,100,1.23,overcast clouds,2021-08-07 20:21:15
558,Warrnambool,AU,-38.3833,142.4833,40.8,88,6,7.65,clear sky,2021-08-07 20:21:15
559,Batemans Bay,AU,-35.7167,150.1833,47.91,82,99,5.39,overcast clouds,2021-08-07 20:19:18
560,Great Yarmouth,GB,52.6083,1.7305,63.01,83,78,10.31,broken clouds,2021-08-07 20:21:15
561,Granadilla De Abona,ES,28.1188,-16.576,71.89,72,40,14.97,scattered clouds,2021-08-07 20:21:16
562,San Rafael,AR,-34.6177,-68.3301,59.99,32,0,14.81,clear sky,2021-08-07 20:17:54
563,Port Hedland,AU,-20.3167,118.5667,64.45,32,21,9.22,few clouds,2021-08-07 20:21:16
564,Churapcha,RU,62.0025,132.4325,54.18,59,5,11.41,clear sky,2021-08-07 20:21:17
565,Kavaratti,IN,10.5669,72.642,81.46,79,100,20.65,overcast clouds,2021-08-07 20:21:17
566,Xiaoyi,CN,34.6178,109.703,75.63,46,99,3.31,light rain,2021-08-07 20:21:17
567,Isabela,PH,6.7085,121.9711,79.3,85,100,5.77,heavy intensity rain,2021-08-07 20:21:17
568,Blyznyuky,UA,48.8578,36.5551,75.54,58,100,4.5,light rain,2021-08-07 20:21:18
569,Santa Rosalia,MX,27.3167,-112.2833,88.97,48,38,6.96,scattered clouds,2021-08-07 20:21:18
570,Flin Flon,CA,54.7682,-101.865,71.44,68,90,17.27,smoke,2021-08-07 20:21:18
571,Port Hawkesbury,CA,45.6169,-61.3485,81.01,75,1,4.0,clear sky,2021-08-07 20:21:19
572,Skibbereen,IE,51.55,-9.2667,58.8,83,36,20.74,scattered clouds,2021-08-07 20:21:19
573,Sola,VU,-13.8833,167.55,78.35,77,89,20.67,overcast clouds,2021-08-07 20:21:19
574,Cervo,ES,43.6702,-7.4101,63.97,78,4,10.25,clear sky,2021-08-07 20:21:20
575,Shahreza,IR,32.0339,51.8794,78.55,28,89,3.36,overcast clouds,2021-08-07 20:21:20
576,Kristiansund,NO,63.1115,7.732,68.65,37,0,8.05,clear sky,2021-08-07 20:21:20
577,Sao Gabriel Da Cachoeira,BR,-0.1303,-67.0892,89.4,62,40,3.44,scattered clouds,2021-08-07 20:21:21
578,Hede,CN,33.7681,120.2517,72.14,90,0,4.72,clear sky,2021-08-07 20:21:21
579,Khovu-Aksy,RU,51.1333,93.6,48.09,91,99,2.68,light rain,2021-08-07 20:21:21
580,Curanilahue,CL,-37.4667,-73.35,52.99,51,24,8.77,few clouds,2021-08-07 20:21:22
581,Krasni Okny,UA,47.5404,29.46,63.99,68,0,5.91,clear sky,2021-08-07 20:21:22
582,Impfondo,CG,1.6381,18.0667,69.98,97,100,1.48,light rain,2021-08-07 20:21:22
583,Kargil,IN,34.5667,76.1,57.9,55,27,7.83,scattered clouds,2021-08-07 20:21:23
584,Belaya Gora,RU,68.5333,146.4167,53.78,73,24,2.68,few clouds,2021-08-07 20:21:23
585,Bunia,CD,1.5667,30.25,62.65,94,45,3.62,moderate rain,2021-08-07 20:21:23
586,Port-Gentil,GA,-0.7193,8.7815,75.16,94,90,8.05,light rain,2021-08-07 20:21:24
587,Grand Gaube,MU,-20.0064,57.6608,70.38,74,33,3.0,light rain,2021-08-07 20:21:24
588,Ivanteyevka,RU,55.9711,37.9208,73.74,78,100,4.0,overcast clouds,2021-08-07 20:21:24
589,Zempoala,MX,19.45,-96.4167,89.91,57,100,9.08,overcast clouds,2021-08-07 20:21:25
590,Sangar,RU,63.9242,127.4739,59.14,53,76,14.94,broken clouds,2021-08-07 20:21:25
591,Roebourne,AU,-20.7833,117.1333,69.94,53,92,6.33,overcast clouds,2021-08-07 20:21:25
592,Clyde,US,41.3042,-82.9752,88.11,58,18,10.4,few clouds,2021-08-07 20:21:25
593,Vardo,NO,70.3705,31.1107,57.63,70,50,8.5,scattered clouds,2021-08-07 20:21:26
594,Bereda,ES,43.2686,-7.5406,60.55,82,9,2.84,clear sky,2021-08-07 20:21:26
595,Zapolyarnyy,RU,69.4154,30.8136,61.88,64,15,7.72,few clouds,2021-08-07 20:21:26
596,Boddam,GB,57.4667,-1.7833,59.38,88,0,13.85,clear sky,2021-08-07 20:21:27
597,Manta,EC,-0.95,-80.7333,76.78,73,75,10.36,broken clouds,2021-08-07 20:21:27
598,Hovd,MN,48.0056,91.6419,56.52,68,5,2.73,clear sky,2021-08-07 20:21:27
599,Goderich,CA,43.7501,-81.7165,85.03,73,1,6.91,clear sky,2021-08-07 20:21:27
600,Surany,SK,48.0861,18.1845,77.45,61,1,10.92,clear sky,2021-08-07 20:21:28
601,Rawson,AR,-43.3002,-65.1023,54.68,33,0,28.39,clear sky,2021-08-07 20:21:28
602,Sucua,EC,-2.4667,-78.1667,84.94,51,75,2.3,light rain,2021-08-07 20:21:28
603,Fort Washington,US,38.7073,-77.023,76.86,88,90,1.01,overcast clouds,2021-08-07 20:21:29
604,Ucar,AZ,40.519,47.6542,83.73,33,31,7.23,scattered clouds,2021-08-07 20:21:29
605,San Vicente De Canete,PE,-13.0751,-76.3835,66.06,76,48,11.59,scattered clouds,2021-08-07 20:21:29
606,Sindor,RU,62.8629,51.8905,45.66,92,0,2.82,clear sky,2021-08-07 20:21:30
607,Sakakah,SA,29.9697,40.2064,92.77,15,0,2.08,clear sky,2021-08-07 20:21:30
608,Pochutla,MX,15.7432,-96.4661,85.05,69,100,6.29,overcast clouds,2021-08-07 20:21:30
609,Tyup,KG,42.7276,78.3648,58.5,52,1,3.51,clear sky,2021-08-07 20:21:31
610,Vila Velha,BR,-20.3297,-40.2925,67.95,88,40,2.3,scattered clouds,2021-08-07 20:21:31
611,Chernyshevsk,RU,52.5243,117.0174,65.61,73,97,11.54,overcast clouds,2021-08-07 20:21:31
612,Anantnag,IN,33.7333,75.15,64.2,80,27,0.25,scattered clouds,2021-08-07 20:21:31
613,Soavinandriana,MG,-19.1667,46.7333,48.81,70,0,5.77,clear sky,2021-08-07 20:21:32
614,Rostock,DE,54.0887,12.1405,61.97,97,100,5.61,overcast clouds,2021-08-07 20:16:37
615,Erenhot,CN,43.6475,111.9767,78.15,31,100,9.42,overcast clouds,2021-08-07 20:21:32
616,Adrar,MR,20.5022,-10.0711,97.43,22,11,12.01,few clouds,2021-08-07 20:21:33
617,Pechora,RU,65.1472,57.2244,49.75,96,100,10.6,overcast clouds,2021-08-07 20:21:33
618,Baykit,RU,61.67,96.37,56.48,64,97,3.04,overcast clouds,2021-08-07 20:21:33
619,Makhinjauri,GE,41.6739,41.694,73.26,83,40,6.91,scattered clouds,2021-08-07 20:21:34
620,San Juan De Los Morros,VE,9.9115,-67.3538,82.27,69,63,3.47,broken clouds,2021-08-07 20:21:34
621,Shetpe,KZ,44.1667,52.1167,90.79,19,0,15.77,clear sky,2021-08-07 20:21:34
622,Rocha,UY,-34.4833,-54.3333,71.73,74,7,6.2,clear sky,2021-08-07 20:21:35
623,Casino,AU,-28.8667,153.05,52.57,100,54,5.75,broken clouds,2021-08-07 20:21:35
624,Wattegama,LK,6.7989,81.4808,75.27,88,100,6.44,overcast clouds,2021-08-07 20:21:35
625,Sayyan,YE,15.1718,44.3244,64.65,53,62,9.44,broken clouds,2021-08-07 20:21:36
626,Itaquyry,PY,-24.9333,-55.2167,84.36,30,0,5.77,clear sky,2021-08-07 20:21:36
627,Petropavlovka,RU,50.6114,105.3196,57.87,84,98,5.64,overcast clouds,2021-08-07 20:21:36
628,Sikandra,IN,26.3667,79.65,81.86,84,71,5.12,broken clouds,2021-08-07 20:21:37
629,Fonte Boa,BR,-2.4959,-66.2662,83.32,66,90,2.62,overcast clouds,2021-08-07 20:21:37
630,Luxor,EG,25.6989,32.6421,95.97,10,0,6.46,clear sky,2021-08-07 20:21:37
631,Bacolod,PH,10.6667,122.95,78.62,90,59,6.31,light rain,2021-08-07 20:21:37
632,Liling,CN,27.6667,113.5,82.29,94,84,0.98,broken clouds,2021-08-07 20:21:38
633,Nichinan,JP,31.6,131.3667,77.27,90,93,1.28,overcast clouds,2021-08-07 20:21:38
634,Tambun,ID,-6.2641,107.0712,80.49,88,7,3.6,clear sky,2021-08-07 20:21:38
635,Salalah,OM,17.0151,54.0924,78.89,89,90,6.91,light intensity drizzle,2021-08-07 20:21:39
636,Priiskovyy,RU,51.9333,116.6333,59.52,93,47,5.55,scattered clouds,2021-08-07 20:21:39
637,Salekhard,RU,66.53,66.6019,57.25,84,10,10.11,clear sky,2021-08-07 20:21:39
638,Faya,SA,18.3851,42.4509,64.51,66,36,2.21,scattered clouds,2021-08-07 20:21:40
639,North Lauderdale,US,26.2173,-80.2259,93.0,67,40,10.36,scattered clouds,2021-08-07 20:18:52
640,Eratira,GR,40.35,21.5167,72.86,27,0,2.98,clear sky,2021-08-07 20:21:40
641,Palauig,PH,15.435,119.9045,81.16,86,100,10.87,overcast clouds,2021-08-07 20:21:40
642,Sandur,IN,15.1,76.55,72.34,88,52,14.27,broken clouds,2021-08-07 20:21:41
643,Mecca,SA,21.4267,39.8261,92.05,38,15,7.09,few clouds,2021-08-07 20:21:41
644,Calvinia,ZA,-31.4707,19.776,58.77,22,60,5.84,broken clouds,2021-08-07 20:21:41
645,Tawau,MY,4.2498,117.8871,80.2,80,96,1.9,moderate rain,2021-08-07 20:21:42
646,Charlottesville,US,38.0293,-78.4767,84.42,77,1,3.0,clear sky,2021-08-07 20:21:42
647,Klyuchi,RU,52.2667,79.1667,65.97,48,23,6.2,few clouds,2021-08-07 20:21:42
648,Novocheremshansk,RU,54.3571,50.1666,63.93,52,24,5.61,few clouds,2021-08-07 20:21:42
649,Comodoro Rivadavia,AR,-45.8667,-67.5,53.46,22,0,18.41,clear sky,2021-08-07 20:21:43
650,Micheweni,TZ,-4.9667,39.8333,73.92,82,11,10.36,few clouds,2021-08-07 20:21:43
651,Nokaneng,BW,-19.6667,22.2667,64.11,21,0,7.58,clear sky,2021-08-07 20:21:43
652,Milkovo,RU,54.7167,158.6167,45.97,91,11,2.91,few clouds,2021-08-07 20:21:44
653,Kathmandu,NP,27.7167,85.3167,71.82,100,75,3.44,moderate rain,2021-08-07 20:19:27
654,Zheleznodorozhnyy,RU,55.7503,38.0042,73.62,44,100,12.1,light rain,2021-08-07 20:21:44
655,Oistins,BB,13.0667,-59.5333,86.09,66,20,11.5,few clouds,2021-08-07 20:19:14
656,Te Anau,NZ,-45.4167,167.7167,34.52,99,100,4.74,moderate rain,2021-08-07 20:21:44
657,Itum-Kale,RU,42.7356,45.5758,72.05,50,99,9.95,overcast clouds,2021-08-07 20:21:45
658,Darhan,MN,49.4867,105.9228,57.2,80,63,1.23,broken clouds,2021-08-07 20:21:45
659,Mnogovershinnyy,RU,53.9353,139.9242,45.0,98,100,3.76,overcast clouds,2021-08-07 20:18:57
660,Norsup,VU,-16.0667,167.3833,75.38,80,98,10.04,overcast clouds,2021-08-07 20:21:46
661,Kununurra,AU,-15.7667,128.7333,55.38,54,20,1.14,few clouds,2021-08-07 20:17:20
662,Omboue,GA,-1.5746,9.2618,74.34,85,100,9.17,overcast clouds,2021-08-07 20:21:46
663,Yumen,CN,40.2833,97.2,69.82,33,10,8.61,clear sky,2021-08-07 20:21:46
664,Preobrazheniye,RU,42.9019,133.9064,68.18,94,100,9.26,overcast clouds,2021-08-07 20:21:46
665,Chalmette,US,29.9427,-89.9634,93.99,57,75,5.01,broken clouds,2021-08-07 20:21:47
666,Malanje,AO,-9.5402,16.341,70.12,35,100,5.08,overcast clouds,2021-08-07 20:21:47
667,Mehamn,NO,71.0357,27.8492,62.44,63,60,6.98,broken clouds,2021-08-07 20:21:47
668,Ust-Tsilma,RU,65.441,52.1498,44.69,95,0,2.93,clear sky,2021-08-07 20:19:13
669,Kattivakkam,IN,13.2167,80.3167,86.09,72,29,16.62,scattered clouds,2021-08-07 20:21:48
670,Yablochnyy,RU,47.1661,142.0661,57.15,93,100,23.55,moderate rain,2021-08-07 20:21:48
671,Puerto Princesa,PH,9.7392,118.7353,80.22,86,84,3.76,broken clouds,2021-08-07 20:21:48
672,Esmeraldas,BR,-19.7625,-44.3139,69.91,47,99,14.27,overcast clouds,2021-08-07 20:21:49
673,Apricena,IT,41.7839,15.4437,80.42,38,0,11.34,clear sky,2021-08-07 20:21:49
674,Muravlenko,RU,63.7898,74.523,64.69,55,90,7.25,overcast clouds,2021-08-07 20:21:49
675,Cap Malheureux,MU,-19.9842,57.6142,70.47,74,23,3.0,light rain,2021-08-07 20:21:50
676,Whyalla,AU,-33.0333,137.5833,35.49,100,0,5.75,clear sky,2021-08-07 20:21:50
677,Bad Sackingen,DE,47.5537,7.9461,62.51,96,95,2.3,overcast clouds,2021-08-07 20:21:50
678,Haines Junction,CA,60.7522,-137.5108,60.75,72,43,2.3,scattered clouds,2021-08-07 20:21:50
679,Quesnel,CA,52.9999,-122.5029,70.3,49,20,11.5,few clouds,2021-08-07 20:21:51
680,Asyut,EG,27.181,31.1837,93.38,13,0,4.5,clear sky,2021-08-07 20:21:51
681,Marzuq,YE,14.4,46.4667,86.58,38,98,10.67,overcast clouds,2021-08-07 20:21:51
682,Olafsvik,IS,64.8945,-23.7142,55.72,78,48,4.27,scattered clouds,2021-08-07 20:21:52
683,Bilaspur,IN,22.0833,82.15,80.29,79,100,5.41,overcast clouds,2021-08-07 20:18:37
684,Tazovskiy,RU,67.4667,78.7,56.17,80,8,5.93,clear sky,2021-08-07 20:21:52
685,Tongliao,CN,43.6125,122.2653,69.85,74,16,7.96,few clouds,2021-08-07 20:18:39
686,Riviere-Au-Renard,CA,48.9957,-64.3971,77.29,78,100,10.04,overcast clouds,2021-08-07 20:21:52
687,Kedrovyy,RU,56.1667,91.8167,55.81,75,80,1.34,broken clouds,2021-08-07 20:21:53
688,Katangli,RU,51.7102,143.2326,53.64,83,100,10.58,overcast clouds,2021-08-07 20:21:53
689,Nadvoitsy,RU,63.8667,34.3167,58.08,60,88,12.75,overcast clouds,2021-08-07 20:21:53
690,Labuhan,ID,-6.8844,112.2051,77.59,87,51,8.01,broken clouds,2021-08-07 20:21:54
691,Svetlogorsk,BY,52.6333,29.7333,55.51,96,2,5.23,clear sky,2021-08-07 20:21:54
692,Xiamen,CN,24.4798,118.0819,82.45,94,75,2.24,mist,2021-08-07 20:21:54
693,Pacifica,US,37.6138,-122.4869,91.87,75,40,5.01,scattered clouds,2021-08-07 20:20:51
694,Abnub,EG,27.2696,31.1511,93.42,13,0,4.54,clear sky,2021-08-07 20:21:55
695,Athabasca,CA,54.7169,-113.2854,68.41,71,97,1.81,overcast clouds,2021-08-07 20:21:55
696,De Aar,ZA,-30.6497,24.0123,52.11,19,32,4.16,scattered clouds,2021-08-07 20:21:55
697,Dafeng,CN,23.4517,108.5881,80.71,90,100,1.32,overcast clouds,2021-08-07 20:21:56
698,Fort-Shevchenko,KZ,44.5086,50.263,90.45,30,0,22.15,clear sky,2021-08-07 20:21:56
699,Crotone,IT,39.0851,17.1178,75.92,72,0,10.16,clear sky,2021-08-07 20:21:56
700,Warri,NG,5.5167,5.75,76.91,84,100,5.46,overcast clouds,2021-08-07 20:21:57
701,Eyrarbakki,IS,63.863,-21.1481,62.2,79,98,2.19,overcast clouds,2021-08-07 20:21:57
702,Griffith,US,41.5284,-87.4237,90.05,60,40,1.01,scattered clouds,2021-08-07 20:21:57
703,Noumea,NC,-22.2763,166.4572,57.18,69,100,5.61,overcast clouds,2021-08-07 20:21:58
704,Pavlovka,RU,52.6897,47.1405,69.06,43,49,5.3,scattered clouds,2021-08-07 20:21:58
705,Mount Pleasant,US,32.7941,-79.8626,82.38,87,1,1.99,light rain,2021-08-07 20:17:57
706,Katsina,NG,12.9894,7.6006,83.59,60,100,15.66,overcast clouds,2021-08-07 20:21:59
707,Kilindoni,TZ,-7.9139,39.6668,75.4,74,3,10.65,clear sky,2021-08-07 20:21:59
708,Bima,ID,-8.4667,118.7167,73.33,92,100,3.91,overcast clouds,2021-08-07 20:18:22
